{
    "missions": {
        "BNP ParisHaut":{
            "offset": 20,
            "name": "BNP ParisHaut",
            "coordinates": [2.00, 48.00],
            "zone": "Europa",
            "isAvailable": false,
            "malus":false,
            "difficulty":1,
            "nbWords":10,
            "isTimer":true,
            "timer":30,
            "inputType":"text",
            "looseMessage":"You looooose !!!",
            "winMessage":"You just hacked BNP ParisHaut !!!",
            "reward":0.5,
            "requiredStats":{
                "ram":3,
                "cpu":2,
                "gpu":5
            },
            "nextStage":"NorthAmerica",
            "isPrimary":true
        },
        "London":{
            "offset": -10,
            "name": "London",
            "coordinates": [-0.50, 52.00],
            "zone": "Europa",
            "isAvailable": true,
            "reward":0.2
        },
        "Berlin":{
            "offset": -10,
            "name": "Berlin",
            "coordinates": [13.00, 53.00],
            "zone": "Europa",
            "isAvailable": true,
            "reward":0.2
        },
        "Saint Petersbourg":{
            "offset": 20,
            "name": "Saint Petersbourg",
            "coordinates": [30.00, 60.00],
            "zone": "Europa",
            "isAvailable": true,
            "reward":0.3
        },
        "Warsaw":{
            "offset": 20,
            "name": "Warsaw",
            "coordinates": [21.00, 52.00],
            "zone": "Europa",
            "isAvailable": true,
            "reward":0.1
        },
        "Washington":{
            "offset": 20,
            "name": "Washington",
            "coordinates": [-77.00, 38.00],
            "zone": "NorthAmerica",
            "isAvailable": true,
            "reward":0.3
        },
        "Los Angeles":{
            "offset": -10,
            "name": "Los Angeles",
            "coordinates": [-117.50, 34.00],
            "zone": "NorthAmerica",
            "isAvailable": true,
            "reward":0.2
        },
        "Pineapple":{
            "offset": -10,
            "name": "Pineapple",
            "coordinates": [-80.00, 44.00],
            "zone": "NorthAmerica",
            "isAvailable": false,
            "difficulty":2,
            "nbWords":5,
            "isTimer":true,
            "timer":35,
            "inputType":"text",
            "looseMessage":"You failed !!!",
            "winMessage":"You just hacked Tim Cooked !!!",
            "reward":1.5,
            "requiredStats":{
                "ram":7,
                "cpu":6,
                "gpu":10
            },
            "nextStage":"Asia",
            "isPrimary":true
        },
        "Havana":{
            "offset": -10,
            "name": "Havana",
            "coordinates": [-82.00, 23.00],
            "zone": "NorthAmerica",
            "isAvailable": true,
            "reward":0.2
        },
        "Mexico City":{
            "offset": -10,
            "name": "Mexico City",
            "coordinates": [-99.00, 19.00],
            "zone": "NorthAmerica",
            "isAvailable": true,
            "reward":0.2
        },
        "Mumbai":{
            "offset": -10,
            "name": "Mumbai",
            "coordinates": [73.50, 19.00],
            "zone": "Asia",
            "isAvailable": true,
            "reward":0.2
        },
        "Hong Kong":{
            "offset": -10,
            "name": "Hong Kong",
            "coordinates": [115.00, 23.00],
            "zone": "Asia",
            "isAvailable": true,
            "reward":0.2
        },
        "Pyongyang":{
            "offset": 20,
            "name": "Pyongyang",
            "coordinates": [125.00, 39.00],
            "zone": "Asia",
            "isAvailable": true,
            "reward":0.3
        },
        "Kabul":{
            "offset": -10,
            "name": "Kabul",
            "coordinates": [69.00, 34.00],
            "zone": "Asia",
            "isAvailable": true,
            "reward":0.2
        },
        "Tok tik":{
            "offset": -10,
            "name": "Tok tik",
            "coordinates": [134.00, 43.00],
            "zone": "Asia",
            "isAvailable": false,
            "difficulty":3,
            "nbWords":2,
            "isTimer":true,
            "timer":45,
            "inputType":"text",
            "looseMessage":"You failed !!!",
            "winMessage":"You just hacked Tok Tik !!!",
            "reward":1.5,
            "requiredStats":{
                "ram":10,
                "cpu":7,
                "gpu":15
            },
            "nextStage":"finished",
            "isPrimary":true
        }
    }
}